{"type":"FeatureCollection","features":[{"type":"Feature","geometry":{"type":"Point","coordinates":[3.2112725,41.9721799,0]},"properties":{"name":"Village / Expo","styleUrl":"#icon-1685-3949AB-nodesc","styleHash":"-889998d","styleMapHash":{"normal":"#icon-1685-3949AB-nodesc-normal","highlight":"#icon-1685-3949AB-nodesc-highlight"}}},{"type":"Feature","geometry":{"type":"Point","coordinates":[3.2116869,41.9721989,0]},"properties":{"name":"Bolsa Nadador / Swimmers bag","styleUrl":"#icon-1684-3949AB-nodesc","styleHash":"-643062cd","styleMapHash":{"normal":"#icon-1684-3949AB-nodesc-normal","highlight":"#icon-1684-3949AB-nodesc-highlight"}}},{"type":"Feature","geometry":{"type":"Point","coordinates":[3.2115407,41.9722068,0]},"properties":{"name":"INFO - INCIDENCIAS/INCIDENTS","styleUrl":"#icon-1608-3949AB-nodesc","styleHash":"-60d603c0","styleMapHash":{"normal":"#icon-1608-3949AB-nodesc-normal","highlight":"#icon-1608-3949AB-nodesc-highlight"}}},{"type":"Feature","geometry":{"type":"Point","coordinates":[3.2116895,41.9722775,0]},"properties":{"name":"Guardarropía / Bag Drop","styleUrl":"#icon-1684-3949AB-nodesc","styleHash":"-643062cd","styleMapHash":{"normal":"#icon-1684-3949AB-nodesc-normal","highlight":"#icon-1684-3949AB-nodesc-highlight"}}},{"type":"Feature","geometry":{"type":"Point","coordinates":[3.2111612,41.9731589,0]},"properties":{"name":"Finish Line","styleUrl":"#icon-1661-3949AB-nodesc","styleHash":"-3bc0074c","styleMapHash":{"normal":"#icon-1661-3949AB-nodesc-normal","highlight":"#icon-1661-3949AB-nodesc-highlight"}}},{"type":"Feature","geometry":{"type":"Point","coordinates":[3.210272,41.9703442,0]},"properties":{"name":"TRASLADOS / TRANSFER","styleUrl":"#icon-1532-3949AB-nodesc","styleHash":"-5499a3a8","styleMapHash":{"normal":"#icon-1532-3949AB-nodesc-normal","highlight":"#icon-1532-3949AB-nodesc-highlight"}}},{"type":"Feature","geometry":{"type":"Point","coordinates":[3.2021706,41.9534226,0]},"properties":{"name":"Traslado / Transfer","styleUrl":"#icon-1532-3949AB-nodesc","styleHash":"-5499a3a8","styleMapHash":{"normal":"#icon-1532-3949AB-nodesc-normal","highlight":"#icon-1532-3949AB-nodesc-highlight"}}},{"type":"Feature","geometry":{"type":"Point","coordinates":[3.2016127,41.9537844,0]},"properties":{"name":"Parking","styleUrl":"#icon-1644-3949AB-nodesc","styleHash":"-289eb645","styleMapHash":{"normal":"#icon-1644-3949AB-nodesc-normal","highlight":"#icon-1644-3949AB-nodesc-highlight"}}},{"type":"Feature","geometry":{"type":"Point","coordinates":[3.211329,41.9724023,0]},"properties":{"name":"Briefing","styleUrl":"#icon-1594-3949AB-nodesc","styleHash":"-40381ea","styleMapHash":{"normal":"#icon-1594-3949AB-nodesc-normal","highlight":"#icon-1594-3949AB-nodesc-highlight"}}},{"type":"Feature","geometry":{"type":"Point","coordinates":[3.2112485,41.9724024,0]},"properties":{"name":"Entrega de premios / Awards ceremony","styleUrl":"#icon-1798-3949AB-nodesc","styleHash":"-70a8efe3","styleMapHash":{"normal":"#icon-1798-3949AB-nodesc-normal","highlight":"#icon-1798-3949AB-nodesc-highlight"}}},{"type":"Feature","geometry":{"type":"Point","coordinates":[3.2122846,41.9726553,0]},"properties":{"name":"Punto Médico Avanzado / Advanced Medical Point","styleUrl":"#icon-1624-FF5252-nodesc","styleHash":"-567d48ae","styleMapHash":{"normal":"#icon-1624-FF5252-nodesc-normal","highlight":"#icon-1624-FF5252-nodesc-highlight"}}},{"type":"Feature","geometry":{"type":"Point","coordinates":[3.2123776,41.9724389,0]},"properties":{"name":"Ambulancia / Ambulance","styleUrl":"#icon-1505-FF5252-nodesc","styleHash":"7040075c","styleMapHash":{"normal":"#icon-1505-FF5252-nodesc-normal","highlight":"#icon-1505-FF5252-nodesc-highlight"}}},{"type":"Feature","geometry":{"type":"Polygon","coordinates":[[[3.2056366,41.9577085,0],[3.2054971,41.9569466,0],[3.2055776,41.9569346,0],[3.2058136,41.957142,0],[3.2058941,41.9572497,0],[3.2058995,41.9577484,0],[3.2056366,41.9577085,0]]]},"properties":{"name":"Parking","styleUrl":"#poly-3949AB-1200-77-nodesc","styleHash":"232f1c48","styleMapHash":{"normal":"#poly-3949AB-1200-77-nodesc-normal","highlight":"#poly-3949AB-1200-77-nodesc-highlight"},"stroke":"#3949ab","stroke-opacity":1,"stroke-width":1.2,"fill":"#3949ab","fill-opacity":0.30196078431372547}},{"type":"Feature","geometry":{"type":"Point","coordinates":[3.2056902,41.9572657,0]},"properties":{"name":"Parking","styleUrl":"#icon-1644-3949AB-nodesc","styleHash":"-289eb645","styleMapHash":{"normal":"#icon-1644-3949AB-nodesc-normal","highlight":"#icon-1644-3949AB-nodesc-highlight"}}},{"type":"Feature","geometry":{"type":"Polygon","coordinates":[[[3.2013301,41.9540882,0],[3.200901,41.9542518,0],[3.2009975,41.9535975,0],[3.2021616,41.9536534,0],[3.2022099,41.9537052,0],[3.2013301,41.9540882,0]]]},"properties":{"name":"Parking","styleUrl":"#poly-1A237E-1200-77","styleHash":"24b7265e","styleMapHash":{"normal":"#poly-1A237E-1200-77-normal","highlight":"#poly-1A237E-1200-77-highlight"},"description":"Parking y traslados autocar<br>Parking and bus transfer","stroke":"#1a237e","stroke-opacity":1,"stroke-width":1.2,"fill":"#1a237e","fill-opacity":0.30196078431372547}},{"type":"Feature","geometry":{"type":"Point","coordinates":[3.2111718,41.9724497,0]},"properties":{"name":"Duchas/Showers","styleUrl":"#icon-1865-3949AB","styleHash":"727b254d","styleMapHash":{"normal":"#icon-1865-3949AB-normal","highlight":"#icon-1865-3949AB-highlight"},"description":"Playa"}},{"type":"Feature","geometry":{"type":"LineString","coordinates":[[3.2115604,41.9731085,0],[3.2123758,41.9740816,0],[3.2133199,41.9744485,0],[3.2143928,41.9739062,0],[3.2157875,41.9741295,0],[3.2182552,41.9742412,0],[3.2207013,41.9745921,0],[3.2214309,41.97464,0],[3.211732,41.9809409,0],[3.2088138,41.9826636,0],[3.2076765,41.9822648,0],[3.2114316,41.9776709,0],[3.211732,41.9763628,0],[3.2112171,41.9731962,0]]},"properties":{"name":"Recorrido Verde / Green course","styleUrl":"#line-558B2F-6813","styleHash":"-1b44251c","styleMapHash":{"normal":"#line-558B2F-6813-normal","highlight":"#line-558B2F-6813-highlight"},"description":"7.000m = 2 vueltas/lap<br>3.500m = 1 vuelta/lap","stroke":"#558b2f","stroke-opacity":1,"stroke-width":6.813}},{"type":"Feature","geometry":{"type":"Point","coordinates":[3.2111613,41.9731292,0]},"properties":{"name":"Finish Line","styleUrl":"#icon-1661-3949AB-nodesc","styleHash":"-3bc0074c","styleMapHash":{"normal":"#icon-1661-3949AB-nodesc-normal","highlight":"#icon-1661-3949AB-nodesc-highlight"}}},{"type":"Feature","geometry":{"type":"Point","coordinates":[3.2114885,41.9730255,0]},"properties":{"name":"Start - 7k / 3,5k","styleUrl":"#icon-1701-3949AB","styleHash":"-247bed75","styleMapHash":{"normal":"#icon-1701-3949AB-normal","highlight":"#icon-1701-3949AB-highlight"},"description":"7km --> 2 vueltas/laps<br>3,5km --> 1 vuelta/lap"}}]}