{"type":"FeatureCollection","features":[{"type":"Feature","geometry":{"type":"Point","coordinates":[1.4147392,38.7325759,0]},"properties":{"name":"Bolsa Nadador / Swimmers Bag","styleUrl":"#icon-1684-3949AB-nodesc","styleHash":"5058e832","styleMapHash":{"normal":"#icon-1684-3949AB-nodesc-normal","highlight":"#icon-1684-3949AB-nodesc-highlight"}}},{"type":"Feature","geometry":{"type":"Point","coordinates":[1.4146359,38.7325582,0]},"properties":{"name":"Village - Expo","styleUrl":"#icon-1685-3949AB-nodesc","styleHash":"42ed1b74","styleMapHash":{"normal":"#icon-1685-3949AB-nodesc-normal","highlight":"#icon-1685-3949AB-nodesc-highlight"}}},{"type":"Feature","geometry":{"type":"Point","coordinates":[1.4146708,38.7325822,0]},"properties":{"name":"Briefing","styleUrl":"#icon-1594-3949AB-nodesc","styleHash":"-31de55ee","styleMapHash":{"normal":"#icon-1594-3949AB-nodesc-normal","highlight":"#icon-1594-3949AB-nodesc-highlight"}}},{"type":"Feature","geometry":{"type":"Point","coordinates":[1.4147191,38.7325487,0]},"properties":{"name":"INFO - Incidencias / Incidents","styleUrl":"#icon-1608-3949AB-nodesc","styleHash":"-155f4ebf","styleMapHash":{"normal":"#icon-1608-3949AB-nodesc-normal","highlight":"#icon-1608-3949AB-nodesc-highlight"}}},{"type":"Feature","geometry":{"type":"Point","coordinates":[1.3889277,38.6931035,0]},"properties":{"name":"Start - 4k","styleUrl":"#icon-1701-3949AB-nodesc","styleHash":"-6001b84","styleMapHash":{"normal":"#icon-1701-3949AB-nodesc-normal","highlight":"#icon-1701-3949AB-nodesc-highlight"}}},{"type":"Feature","geometry":{"type":"LineString","coordinates":[[1.3888361,38.69315,0],[1.3877417,38.6933007,0],[1.3869907,38.6934012,0],[1.384802,38.693217,0],[1.3834502,38.6930662,0],[1.3820555,38.693284,0],[1.3843729,38.7010378,0],[1.3862183,38.7059441,0],[1.387184,38.7079115,0],[1.3877097,38.70707,0],[1.3879082,38.7052428,0],[1.3884795,38.7035087,0],[1.3881965,38.7010592,0],[1.3886236,38.7004289,0],[1.3896086,38.6997651,0],[1.3896515,38.6976383,0],[1.3888575,38.6967507,0],[1.3887932,38.6955281,0],[1.3890077,38.6951094,0],[1.3884928,38.6944395,0],[1.3883855,38.6937194,0],[1.38897,38.6933238,0]]},"properties":{"name":"4k Cala Saona","styleUrl":"#line-7CB342-6813-nodesc","styleHash":"-948578b","styleMapHash":{"normal":"#line-7CB342-6813-nodesc-normal","highlight":"#line-7CB342-6813-nodesc-highlight"},"stroke":"#7cb342","stroke-opacity":1,"stroke-width":6.813}},{"type":"Feature","geometry":{"type":"Point","coordinates":[1.3890672,38.6932877,0]},"properties":{"name":"Finish Line","styleUrl":"#icon-1661-3949AB-nodesc","styleHash":"5b2d62b6","styleMapHash":{"normal":"#icon-1661-3949AB-nodesc-normal","highlight":"#icon-1661-3949AB-nodesc-highlight"}}},{"type":"Feature","geometry":{"type":"Point","coordinates":[1.4120546,38.7313204,0]},"properties":{"name":"Start 8k","styleUrl":"#icon-1701-3949AB-nodesc","styleHash":"-6001b84","styleMapHash":{"normal":"#icon-1701-3949AB-nodesc-normal","highlight":"#icon-1701-3949AB-nodesc-highlight"}}}]}