{"type":"FeatureCollection","features":[{"type":"Feature","geometry":{"type":"Point","coordinates":[1.4147392,38.7325759,0]},"properties":{"name":"Bolsa Nadador / Swimmers Bag","styleUrl":"#icon-1684-3949AB-nodesc","styleHash":"5058e832","styleMapHash":{"normal":"#icon-1684-3949AB-nodesc-normal","highlight":"#icon-1684-3949AB-nodesc-highlight"}}},{"type":"Feature","geometry":{"type":"Point","coordinates":[1.4146359,38.7325582,0]},"properties":{"name":"Village - Expo","styleUrl":"#icon-1685-3949AB-nodesc","styleHash":"42ed1b74","styleMapHash":{"normal":"#icon-1685-3949AB-nodesc-normal","highlight":"#icon-1685-3949AB-nodesc-highlight"}}},{"type":"Feature","geometry":{"type":"Point","coordinates":[1.4147191,38.7325487,0]},"properties":{"name":"INFO - Incidencias / Incidents","styleUrl":"#icon-1608-3949AB-nodesc","styleHash":"-60d603c0","styleMapHash":{"normal":"#icon-1608-3949AB-nodesc-normal","highlight":"#icon-1608-3949AB-nodesc-highlight"}}},{"type":"Feature","geometry":{"type":"Point","coordinates":[1.4146708,38.7325822,0]},"properties":{"name":"Briefing","styleUrl":"#icon-1594-3949AB-nodesc","styleHash":"19985f13","styleMapHash":{"normal":"#icon-1594-3949AB-nodesc-normal","highlight":"#icon-1594-3949AB-nodesc-highlight"}}},{"type":"Feature","geometry":{"type":"Point","coordinates":[1.3889277,38.6931035,0]},"properties":{"name":"Start - 2k","styleUrl":"#icon-1701-3949AB-nodesc","styleHash":"-6001b84","styleMapHash":{"normal":"#icon-1701-3949AB-nodesc-normal","highlight":"#icon-1701-3949AB-nodesc-highlight"}}},{"type":"Feature","geometry":{"type":"LineString","coordinates":[[1.3888361,38.69315,0],[1.3870185,38.6934876,0],[1.3834673,38.6931443,0],[1.3821905,38.6933285,0],[1.385495,38.6958239,0],[1.3878124,38.6978168,0],[1.3893789,38.6989388,0],[1.3894432,38.697666,0],[1.3886064,38.6968454,0],[1.3885635,38.6955224,0],[1.388778,38.6951205,0],[1.388306,38.6945176,0],[1.3881772,38.6937639,0],[1.38897,38.6933238,0]]},"properties":{"name":"2k Cala Saona","styleUrl":"#line-FFD600-6425-nodesc","styleHash":"948de09","styleMapHash":{"normal":"#line-FFD600-6425-nodesc-normal","highlight":"#line-FFD600-6425-nodesc-highlight"},"stroke":"#ffd600","stroke-opacity":1,"stroke-width":6.425}},{"type":"Feature","geometry":{"type":"Point","coordinates":[1.3890672,38.6932877,0]},"properties":{"name":"Finish Line","styleUrl":"#icon-1661-3949AB-nodesc","styleHash":"5b2d62b6","styleMapHash":{"normal":"#icon-1661-3949AB-nodesc-normal","highlight":"#icon-1661-3949AB-nodesc-highlight"}}}]}