{"type":"FeatureCollection","features":[{"type":"Feature","geometry":{"type":"Point","coordinates":[2.2133378,41.4004789,0]},"properties":{"name":"WC","styleUrl":"#icon-1733-3949AB-nodesc","styleHash":"-2fe91569","styleMapHash":{"normal":"#icon-1733-3949AB-nodesc-normal","highlight":"#icon-1733-3949AB-nodesc-highlight"}}},{"type":"Feature","geometry":{"type":"Point","coordinates":[2.2124711,41.4007157,0]},"properties":{"name":"Village / Expo","styleUrl":"#icon-1685-3949AB-nodesc","styleHash":"42ed1b74","styleMapHash":{"normal":"#icon-1685-3949AB-nodesc-normal","highlight":"#icon-1685-3949AB-nodesc-highlight"}}},{"type":"Feature","geometry":{"type":"Point","coordinates":[2.2135605,41.4003904,0]},"properties":{"name":"Duchas/Showers","styleUrl":"#icon-1865-3949AB-nodesc","styleHash":"-3f52df47","styleMapHash":{"normal":"#icon-1865-3949AB-nodesc-normal","highlight":"#icon-1865-3949AB-nodesc-highlight"}}},{"type":"Feature","geometry":{"type":"Point","coordinates":[2.2127005,41.4008526,0]},"properties":{"name":"Bolsa Nadador / Swimmers bag","styleUrl":"#icon-1684-3949AB-nodesc","styleHash":"32bd0735","styleMapHash":{"normal":"#icon-1684-3949AB-nodesc-normal","highlight":"#icon-1684-3949AB-nodesc-highlight"}}},{"type":"Feature","geometry":{"type":"Point","coordinates":[2.2122579,41.400922,0]},"properties":{"name":"Briefing ","styleUrl":"#icon-1594-3949AB-nodesc","styleHash":"650f1414","styleMapHash":{"normal":"#icon-1594-3949AB-nodesc-normal","highlight":"#icon-1594-3949AB-nodesc-highlight"}}},{"type":"Feature","geometry":{"type":"Point","coordinates":[2.2101072,41.3994836,0]},"properties":{"name":"Traslados / Transfer","styleUrl":"#icon-1532-3949AB","styleHash":"71329776","styleMapHash":{"normal":"#icon-1532-3949AB-normal","highlight":"#icon-1532-3949AB-highlight"},"description":"4km <br>2km "}},{"type":"Feature","geometry":{"type":"Point","coordinates":[2.2120248,41.400747,0]},"properties":{"name":"Guardarropía / Bag Drop","styleUrl":"#icon-1684-3949AB-nodesc","styleHash":"32bd0735","styleMapHash":{"normal":"#icon-1684-3949AB-nodesc-normal","highlight":"#icon-1684-3949AB-nodesc-highlight"}}},{"type":"Feature","geometry":{"type":"Point","coordinates":[2.212199,41.4005991,0]},"properties":{"name":"Food Truck","styleUrl":"#icon-1567-3949AB-nodesc","styleHash":"3b9e1b3c","styleMapHash":{"normal":"#icon-1567-3949AB-nodesc-normal","highlight":"#icon-1567-3949AB-nodesc-highlight"}}},{"type":"Feature","geometry":{"type":"Point","coordinates":[2.212904,41.4006842,0]},"properties":{"name":"INCIDENCIAS / INCIDENTS","styleUrl":"#icon-1608-3949AB-nodesc","styleHash":"187b8545","styleMapHash":{"normal":"#icon-1608-3949AB-nodesc-normal","highlight":"#icon-1608-3949AB-nodesc-highlight"}}},{"type":"Feature","geometry":{"type":"Point","coordinates":[2.2125074,41.4010017,0]},"properties":{"name":"Entrega Premios / Awards ceremony","styleUrl":"#icon-1798-3949AB-nodesc","styleHash":"-25323ae2","styleMapHash":{"normal":"#icon-1798-3949AB-nodesc-normal","highlight":"#icon-1798-3949AB-nodesc-highlight"}}},{"type":"Feature","geometry":{"type":"Point","coordinates":[2.2127228,41.4005435,0]},"properties":{"name":"INFO","styleUrl":"#icon-1608-3949AB-nodesc","styleHash":"187b8545","styleMapHash":{"normal":"#icon-1608-3949AB-nodesc-normal","highlight":"#icon-1608-3949AB-nodesc-highlight"}}},{"type":"Feature","geometry":{"type":"Point","coordinates":[2.22752,41.4102366,0]},"properties":{"name":"START 2k","styleUrl":"#icon-1701-3949AB-nodesc","styleHash":"-7314ebd0","styleMapHash":{"normal":"#icon-1701-3949AB-nodesc-normal","highlight":"#icon-1701-3949AB-nodesc-highlight"}}},{"type":"Feature","geometry":{"type":"LineString","coordinates":[[2.2274994,41.4101855,0],[2.2266089,41.4086204,0],[2.225697,41.407337,0],[2.225874,41.4072726,0],[2.2271561,41.4091515,0],[2.2277086,41.4101131,0]]},"properties":{"name":"Recorregut - 800m","styleUrl":"#line-FFFFFF-6813","styleHash":"-548cca9c","styleMapHash":{"normal":"#line-FFFFFF-6813-normal","highlight":"#line-FFFFFF-6813-highlight"},"description":"4km --> 5 voltes / laps <br>2km --> 2,5 voltes / laps","stroke":"#ffffff","stroke-opacity":1,"stroke-width":6.813}},{"type":"Feature","geometry":{"type":"Point","coordinates":[2.2284268,41.4103739,0]},"properties":{"name":"Control Chip","styleUrl":"#icon-1769-558B2F-nodesc","styleHash":"57521ee1","styleMapHash":{"normal":"#icon-1769-558B2F-nodesc-normal","highlight":"#icon-1769-558B2F-nodesc-highlight"}}},{"type":"Feature","geometry":{"type":"Point","coordinates":[2.2281747,41.4108647,0]},"properties":{"name":"Guardarropía / Bag Drop","styleUrl":"#icon-1684-3949AB-nodesc","styleHash":"32bd0735","styleMapHash":{"normal":"#icon-1684-3949AB-nodesc-normal","highlight":"#icon-1684-3949AB-nodesc-highlight"}}},{"type":"Feature","geometry":{"type":"Point","coordinates":[2.2286761,41.4106354,0]},"properties":{"name":"Agua / Water","styleUrl":"#icon-1703-3949AB-nodesc","styleHash":"-6302ee10","styleMapHash":{"normal":"#icon-1703-3949AB-nodesc-normal","highlight":"#icon-1703-3949AB-nodesc-highlight"}}},{"type":"Feature","geometry":{"type":"Point","coordinates":[2.2286118,41.4106394,0]},"properties":{"name":"Vaselina / Vaseline","styleUrl":"#icon-1610-3949AB-nodesc","styleHash":"274c8d36","styleMapHash":{"normal":"#icon-1610-3949AB-nodesc-normal","highlight":"#icon-1610-3949AB-nodesc-highlight"}}},{"type":"Feature","geometry":{"type":"Point","coordinates":[2.2277924,41.4102059,0]},"properties":{"name":"Finish Line","styleUrl":"#icon-1661-3949AB-nodesc","styleHash":"5be8461b","styleMapHash":{"normal":"#icon-1661-3949AB-nodesc-normal","highlight":"#icon-1661-3949AB-nodesc-highlight"}}},{"type":"Feature","geometry":{"type":"Polygon","coordinates":[[[2.1894056,41.3706745,0],[2.1891535,41.3706554,0],[2.1891803,41.3704461,0],[2.1894445,41.3704682,0],[2.189417,41.3706277,0],[2.1894056,41.3706745,0]]]},"properties":{"name":"FINISH LINE","styleUrl":"#poly-3949AB-1200-77-nodesc","styleHash":"232f1c48","styleMapHash":{"normal":"#poly-3949AB-1200-77-nodesc-normal","highlight":"#poly-3949AB-1200-77-nodesc-highlight"},"stroke":"#3949ab","stroke-opacity":1,"stroke-width":1.2,"fill":"#3949ab","fill-opacity":0.30196078431372547}},{"type":"Feature","geometry":{"type":"Point","coordinates":[2.2123828,41.4004309,0]},"properties":{"name":"FISIO","styleUrl":"#icon-1737-3949AB-nodesc","styleHash":"72cf2e72","styleMapHash":{"normal":"#icon-1737-3949AB-nodesc-normal","highlight":"#icon-1737-3949AB-nodesc-highlight"}}},{"type":"Feature","geometry":{"type":"Point","coordinates":[2.2280159,41.4109901,0]},"properties":{"name":"Punto Médico Avanzado/Advanced Medical Point","styleUrl":"#icon-1624-FF5252-nodesc","styleHash":"50b2da4","styleMapHash":{"normal":"#icon-1624-FF5252-nodesc-normal","highlight":"#icon-1624-FF5252-nodesc-highlight"}}},{"type":"Feature","geometry":{"type":"Point","coordinates":[2.2276098,41.4108122,0]},"properties":{"name":"WC","styleUrl":"#icon-1733-3949AB-nodesc","styleHash":"-2fe91569","styleMapHash":{"normal":"#icon-1733-3949AB-nodesc-normal","highlight":"#icon-1733-3949AB-nodesc-highlight"}}}]}